{
  "locations": [
    {
      "location": "America",
      "longitude": 87.25,
      "latitude": 33.733,
      "longdir": "West",
      "latdir": "North",
      "width": 20,
      "height": 20
    },
    {
      "location": "Germany",
      "longitude": 10.416,
      "latitude": 51.083,
      "longdir": "East",
      "latdir": "North",
      "width": 20,
      "height": 20
    },
    {
      "location": "Italy",
      "longitude": 12.666,
      "latitude": 42.633,
      "longdir": "East",
      "latdir": "North",
      "width": 20,
      "height": 20
    },
    {
      "location": "Scotland",
      "longitude": 4.1,
      "latitude": 56.783,
      "longdir": "West",
      "latdir": "North",
      "width": 20,
      "height": 20
    },
    {
      "location": "India",
      "longitude": 78.666,
      "latitude": 22.35,
      "longdir": "East",
      "latdir": "North",
      "width": 20,
      "height": 20
    },
    {
      "location": "China",
      "longitude": 104.983,
      "latitude": 35,
      "longdir": "East",
      "latdir": "North",
      "width": 20,
      "height": 20
    },
    {
      "location": "Greece",
      "longitude": 21.983,
      "latitude": 38.983,
      "longdir": "East",
      "latdir": "North",
      "width": 20,
      "height": 20
    },
    {
      "location": "Switzerland",
      "longitude": 8.216,
      "latitude": 46.783,
      "longdir": "East",
      "latdir": "North",
      "width": 20,
      "height": 20
    },
    {
      "location": "Japan",
      "longitude": 139.233,
      "latitude": 36.566,
      "longdir": "East",
      "latdir": "North",
      "width": 20,
      "height": 20
    },
    {
      "location": "Sweeden",
      "longitude": 14.516,
      "latitude": 59.666,
      "longdir": "East",
      "latdir": "North",
      "width": 20,
      "height": 20
    },
    {
      "location": "England",
      "longitude": 0.533,
      "latitude": 52.783,
      "longdir": "East",
      "latdir": "North",
      "width": 20,
      "height": 20
    },
    {
      "location": "Russia",
      "longitude": 97.733,
      "latitude": 64.683,
      "longdir": "East",
      "latdir": "North",
      "width": 20,
      "height": 20
    },
    {
      "location": "South_Korea",
      "longitude": 127.683,
      "latitude": 36.633,
      "longdir": "East",
      "latdir": "North",
      "width": 20,
      "height": 20
    },
    {
      "location": "South Korea",
      "longitude": 127.683,
      "latitude": 36.633,
      "longdir": "East",
      "latdir": "North",
      "width": 20,
      "height": 20
    }
  ]
}
